City,Latitude,Longitude,Max Temp,Humidity,Cloudy,Wind (in mph),Country,Date
Torbay,47.6666,-52.7314,279.97,74,75,5.14,CA,1621471766
Nanortalik,60.1432,-45.2371,275.55,78,4,3.75,GL,1621471231
Los Llanos de Aridane,28.6585,-17.9182,293.77,55,0,7.0,ES,1621471198
Severo-Kuril'sk,50.6789,156.125,279.54,82,61,1.14,RU,1621471767
Kapaa,22.0752,-159.319,300.14,72,75,1.79,US,1621471767
Gamba,-2.65,10.0,298.54,92,94,2.51,GA,1621471189
Pisco,-13.7,-76.2167,292.6,82,1,5.14,PE,1621471767
Hermanus,-34.4187,19.2345,288.71,91,100,0.45,ZA,1621471768
Puerto Ayora,-0.7393,-90.3518,296.79,89,6,2.68,EC,1621471768
Marzuq,14.4,46.4667,299.99,32,72,1.14,YE,1621471283
Hong Kong,22.2855,114.1577,304.26,80,100,0.45,HK,1621471681
Pevek,69.7008,170.3133,274.0,88,56,2.83,RU,1621471769
Snezhnogorsk,69.1933,33.2531,281.03,93,99,6.05,RU,1621471283
Tasiilaq,65.6145,-37.6368,268.24,73,16,2.2,GL,1621471769
Westport,41.1415,-73.3579,298.74,61,1,0.89,US,1621471250
New Norfolk,-42.7826,147.0587,287.4,59,47,4.76,AU,1621471770
Rikitea,-23.1203,-134.9692,296.11,61,51,8.21,PF,1621471770
Rocha,-34.4833,-54.3333,280.47,89,55,0.78,UY,1621471284
Atuona,-9.8,-139.0333,299.95,77,21,7.62,PF,1621471664
Nyaunglebin,17.95,96.7333,303.99,62,91,2.96,MM,1621471284
Lebu,-37.6167,-73.65,285.03,81,67,5.13,CL,1621471690
Ushuaia,-54.8,-68.3,279.15,93,75,2.06,AR,1621471502
Saint-Joseph,-21.3667,55.6167,295.35,79,47,8.45,RE,1621471285
Banyo,6.75,11.8167,291.8,90,92,1.13,CM,1621471285
Mahébourg,-20.4081,57.7,294.96,72,48,9.83,MU,1621471771
Saskylakh,71.9167,114.0833,270.94,91,100,4.18,RU,1621471771
Provideniya,64.3833,-173.3,274.21,75,0,4.0,RU,1621471772
Puerto Baquerizo Moreno,-0.9,-89.6,296.36,77,3,3.87,EC,1621471772
Flin Flon,54.7682,-101.865,276.2,57,100,5.41,CA,1621471179
Constitución,-35.3333,-72.4167,286.72,94,100,5.05,CL,1621471222
Goubellat,36.5418,9.6633,290.27,77,99,5.42,TN,1621471286
Derzhavīnsk,51.1,66.3167,285.95,60,0,3.57,KZ,1621471274
Saint-Philippe,-21.3585,55.7679,295.9,78,59,8.73,RE,1621471773
Vaini,-21.2,-175.2,300.24,78,75,4.63,TO,1621471773
Mar del Plata,-38.0023,-57.5575,285.37,93,90,2.06,AR,1621471500
Busselton,-33.65,115.3333,289.11,71,6,2.12,AU,1621471773
Salinópolis,-0.6136,-47.3561,299.66,81,0,4.28,BR,1621471181
Narsaq,60.9167,-46.05,279.15,45,75,4.12,GL,1621471774
Jamestown,42.097,-79.2353,295.15,40,1,3.6,US,1621471669
Yellowknife,62.456,-114.3525,278.44,33,20,2.24,CA,1621471774
Chokurdakh,70.6333,147.9167,273.1,100,100,3.3,RU,1621471182
Port Alfred,-33.5906,26.891,296.23,39,82,5.02,ZA,1621471775
Te Anau,-45.4167,167.7167,285.73,75,57,2.22,NZ,1621471287
Buala,-8.145,159.5921,301.63,77,98,3.09,SB,1621471775
Bluff,-46.6,168.3333,288.15,75,93,0.89,NZ,1621471776
Ambunti,-4.2365,142.8448,303.18,71,76,0.26,PG,1621471288
Hilo,19.7297,-155.09,300.0,67,20,4.12,US,1621471776
Dikson,73.5069,80.5464,263.76,96,89,2.62,RU,1621471776
Coquimbo,-29.9533,-71.3436,288.0,79,0,1.18,CL,1621471233
Husavik,66.0449,-17.3389,274.1,74,9,1.39,IS,1621471777
Qaanaaq,77.484,-69.3632,272.39,81,67,3.27,GL,1621471777
Bariloche,-41.1456,-71.3082,279.01,88,40,1.25,AR,1621471289
Nador,35.174,-2.9287,293.19,91,90,3.48,MA,1621471053
Bengkulu,-3.8004,102.2655,298.19,88,99,1.39,ID,1621471757
Saint-Pierre,-21.3393,55.4781,295.95,87,75,9.77,RE,1621471289
Petropavl,54.8753,69.1628,283.47,58,51,1.41,KZ,1621471289
Bredasdorp,-34.5322,20.0403,288.31,91,98,2.99,ZA,1621471778
Korfovskiy,48.2183,135.0564,289.85,55,56,4.1,RU,1621471290
Avarua,-21.2078,-159.775,301.18,69,40,7.2,CK,1621471702
Castro,-24.7911,-50.0119,284.23,51,1,0.88,BR,1621471779
Yar-Sale,66.8333,70.8333,275.34,78,100,8.2,RU,1621471290
Salawagan,7.7053,125.115,300.34,80,92,0.29,PH,1621471291
Arrondissement de Bastia,42.6667,9.3333,289.04,85,0,1.12,FR,1621471140
Orlik,52.5178,99.825,277.71,98,100,1.87,RU,1621471291
Taoudenni,22.6783,-3.9836,309.5,14,98,10.68,ML,1621471235
Mount Gambier,-37.8333,140.7667,286.15,88,75,2.57,AU,1621471780
Albany,42.6001,-73.9662,297.08,58,100,1.53,US,1621471780
George Town,5.4112,100.3354,299.82,94,20,1.03,MY,1621471780
Khandyga,62.6667,135.6,281.57,27,100,2.31,RU,1621471183
Punta Arenas,-53.15,-70.9167,280.15,70,75,5.66,CL,1621471501
Eureka,40.8021,-124.1637,287.11,73,2,4.47,US,1621471257
Palu,-0.8917,119.8707,302.83,72,70,0.3,ID,1621471292
Xining,36.6167,101.7667,283.7,44,54,1.37,CN,1621471781
Batemans Bay,-35.7167,150.1833,288.66,39,29,0.83,AU,1621471293
Pangnirtung,66.1451,-65.7125,260.14,90,32,2.37,CA,1621471186
Arti,56.4234,58.5328,284.52,74,16,1.38,RU,1621471293
Acapulco de Juárez,16.8634,-99.8901,303.15,66,40,4.63,MX,1621471293
Port Elizabeth,-33.918,25.5701,289.31,94,0,2.57,ZA,1621471234
Neuquén,-38.9516,-68.0591,284.09,100,0,1.54,AR,1621471294
Cape Town,-33.9258,18.4232,289.2,93,75,2.24,ZA,1621471733
Khorramshahr,30.4397,48.1664,306.14,10,0,5.42,IR,1621471294
Vanimo,-2.6741,141.3028,302.64,68,82,2.11,PG,1621471220
Miles City,46.4083,-105.8406,295.15,18,1,7.72,US,1621471295
Jasper,37.2001,-94.3502,294.26,83,90,3.6,US,1621471295
Mataura,-46.1927,168.8643,288.15,75,60,0.89,NZ,1621471783
Edd,13.9297,41.6925,303.98,48,87,2.48,ER,1621471296
Xinqing,48.2333,129.5,294.66,49,23,4.54,CN,1621471296
Norman Wells,65.282,-126.8329,285.17,37,75,3.6,CA,1621471242
Zaoyang,32.1272,112.7542,293.56,70,100,2.98,CN,1621471296
Bentley,53.5333,-1.15,281.76,82,100,2.05,GB,1621471297
Bethel,41.3712,-73.414,295.62,74,100,1.71,US,1621471783
La Ronge,55.1001,-105.2842,272.29,55,90,5.66,CA,1621471783
Garoowe,8.4054,48.4845,300.35,58,100,8.81,SO,1621471297
Hobart,-42.8794,147.3294,287.59,44,40,5.66,AU,1621471754
Arraial do Cabo,-22.9661,-42.0278,294.84,70,43,1.4,BR,1621471784
Santa Maria,-29.6842,-53.8069,283.76,63,0,1.63,BR,1621471298
Itarema,-2.9248,-39.9167,298.64,86,29,4.7,BR,1621471140
Sitka,57.0531,-135.33,286.09,62,20,3.6,US,1621471262
Nhulunbuy,-12.2333,136.7667,300.49,78,75,5.66,AU,1621471298
Ponta do Sol,32.6667,-17.1,295.5,59,3,2.93,PT,1621471785
Cabo San Lucas,22.8909,-109.9124,299.26,61,1,1.54,MX,1621471785
Kaitangata,-46.2817,169.8464,289.22,65,81,1.89,NZ,1621471785
Avera,33.194,-82.5271,297.96,68,100,4.32,US,1621471299
Arinos,-15.9169,-46.1056,292.4,50,50,0.85,BR,1621471299
Sosnovo-Ozerskoye,52.5249,111.5418,281.93,37,100,1.26,RU,1621471300
Lavrentiya,65.5833,-171.0,274.05,95,40,1.49,RU,1621471267
Lagoa,39.05,-27.9833,288.42,85,100,7.34,PT,1621471786
Zhangaözen,43.3,52.8,291.38,62,99,3.7,KZ,1621471273
Katsuura,35.1333,140.3,294.92,85,100,3.61,JP,1621471787
Mujiayingzi,42.1167,118.7833,296.54,30,100,2.36,CN,1621471300
Butaritari,3.0707,172.7902,301.4,76,51,5.3,KI,1621471787
Lompoc,34.6391,-120.4579,289.15,55,1,9.26,US,1621471787
Naze,28.3667,129.4833,298.66,83,24,6.4,JP,1621471248
Dossor,47.5272,52.9811,296.4,46,100,7.22,KZ,1621471301
Jacareacanga,-6.2222,-57.7528,296.19,98,99,0.76,BR,1621471301
Port Macquarie,-31.4333,152.9167,292.53,59,93,0.93,AU,1621471302
Carnarvon,-24.8667,113.6333,291.19,82,0,3.6,AU,1621471788
Krasnosel'kup,65.7,82.4667,268.7,67,32,4.34,RU,1621471302
Niltepec,16.5667,-94.6167,300.19,79,15,3.93,MX,1621471303
Ures,29.4333,-110.4,307.04,20,0,1.79,MX,1621471303
Boa Vista,2.8197,-60.6733,298.14,88,75,2.57,BR,1621471303
Araguaína,-7.1911,-48.2072,297.55,84,100,1.16,BR,1621471304
Jolo,6.05,121.0167,301.38,78,99,3.14,PH,1621471032
East London,-33.0153,27.9116,297.39,32,100,6.09,ZA,1621471789
Tiksi,71.6872,128.8694,272.55,93,100,3.77,RU,1621471790
Hithadhoo,-0.6,73.0833,302.18,69,41,3.84,MV,1621471790
Puerto Ayacucho,5.6639,-67.6236,296.28,92,100,0.96,VE,1621471304
Sept-Îles,50.2001,-66.3821,281.48,71,75,1.03,CA,1621471491
Meadow Lake,34.8014,-106.5436,296.75,45,99,3.37,US,1621471305
Olinda,-8.0089,-34.8553,298.0,80,0,2.51,BR,1621471305
Walvis Bay,-22.9575,14.5053,287.64,80,0,1.83,NA,1621471305
Inírida,3.8653,-67.9239,295.35,98,100,1.07,CO,1621471306
Chipinge,-20.1883,32.6236,284.31,87,0,1.4,ZW,1621471306
Sinnamary,5.3833,-52.95,298.84,89,100,6.12,GF,1621471791
Carupano,10.6678,-63.2585,297.93,85,6,4.48,VE,1621471306
Arlit,18.7369,7.3853,305.48,11,0,4.64,NE,1621471307
Ouango,4.3133,22.5552,294.22,98,94,1.24,CF,1621471307
Nome,64.5011,-165.4064,282.68,81,20,3.09,US,1621471792
Kokkola,63.8385,23.1307,281.24,98,100,2.24,FI,1621471241
Turtas,58.9417,69.1325,281.6,64,96,1.54,RU,1621471308
Hirara,24.8,125.2833,303.07,84,75,7.72,JP,1621471308
Isangel,-19.55,169.2667,299.21,80,90,4.95,VU,1621471792
Ust'-Barguzin,53.45,108.9833,279.7,60,100,3.04,RU,1621471308
Tomaszów Lubelski,50.4477,23.4162,280.93,94,97,2.7,PL,1621471309
Oyama,36.3,139.8,296.38,66,100,1.44,JP,1621471309
Cherskiy,68.75,161.3,280.54,54,82,3.13,RU,1621471793
Port Keats,-14.25,129.55,303.05,47,54,3.52,AU,1621471310
Wexford,52.3342,-6.4575,284.26,88,100,4.02,IE,1621471310
Nikolskoye,59.7035,30.7861,286.92,92,100,2.78,RU,1621471793
Sola,-13.8833,167.55,300.52,83,90,2.57,VU,1621471252
Kayes,14.0,-11.0,307.47,35,100,4.5,ML,1621471310
Codrington,-38.2667,141.9667,287.41,80,100,2.19,AU,1621471311
Barrow,71.2906,-156.7887,272.16,86,90,5.14,US,1621471794
Dwārka,22.2394,68.9678,302.17,74,97,4.84,IN,1621471311
Flinders,-34.5833,150.8552,291.03,52,95,1.34,AU,1621471260
Belyy,55.8402,32.9419,286.8,92,100,3.23,RU,1621471312
Clyde River,70.4692,-68.5914,265.28,79,1,7.2,CA,1621471795
Bandar-e Lengeh,26.5579,54.8807,303.21,89,0,2.06,IR,1621471226
Khatanga,71.9667,102.5,269.32,92,89,1.39,RU,1621471795
Iqaluit,63.7506,-68.5145,269.0,58,75,2.57,CA,1621471795
Saint Paul Harbor,57.79,-152.4072,278.88,87,90,10.29,US,1621471796
Bambous Virieux,-20.3428,57.7575,294.94,74,48,9.94,MU,1621471796
Kumul,42.8,93.45,296.84,14,57,4.03,CN,1621471313
Lumeje,-11.55,20.7833,288.86,62,18,2.28,AO,1621471313
Palatka,29.6486,-81.6376,297.34,71,87,3.64,US,1621471313
Nelson Bay,-32.7167,152.15,290.37,72,0,3.6,AU,1621471314
São Filipe,14.8961,-24.4956,296.86,74,96,2.85,CV,1621471797
Upernavik,72.7868,-56.1549,270.54,80,11,3.98,GL,1621471797
Nauta,-4.5061,-73.5757,296.26,94,85,0.08,PE,1621471797
Urla,38.3229,26.764,295.15,88,0,1.54,TR,1621471315
Quelimane,-17.8786,36.8883,293.12,94,20,1.03,MZ,1621471315
Hasaki,35.7333,140.8333,294.15,88,75,2.57,JP,1621471798
Half Moon Bay,37.4636,-122.4286,293.1,70,1,0.89,US,1621471271
San Juan,-31.5375,-68.5364,292.44,53,100,5.36,AR,1621471225
Sakakah,29.9697,40.2064,303.91,15,100,5.61,SA,1621471315
Yurimaguas,-5.9,-76.0833,296.06,96,61,0.19,PE,1621471316
Paramirim,-13.4425,-42.2389,297.18,45,72,0.95,BR,1621471316
Murgab,37.4966,61.9714,295.08,21,0,1.96,TM,1621471317
San Patricio,28.017,-97.5169,296.55,94,100,3.52,US,1621471799
Moree,-29.4667,149.85,291.16,52,0,3.6,AU,1621471317
Tuktoyaktuk,69.4541,-133.0374,276.15,75,20,7.72,CA,1621471799
Livingstonia,-10.606,34.1063,287.24,81,79,1.71,MW,1621471318
Hornepayne,49.2138,-84.7705,288.51,90,100,5.16,CA,1621471318
Lalibela,12.0333,39.0333,289.37,38,100,1.0,ET,1621471251
Havelock,34.8791,-76.9013,295.34,64,1,2.06,US,1621471800
Bereket,39.2446,55.5154,296.63,39,0,2.0,TM,1621471318
Cooma,-36.2333,149.1333,277.15,93,99,3.09,AU,1621471319
Ixtapa,20.7,-105.2,299.72,61,1,6.69,MX,1621471319
Hamilton,39.1834,-84.5333,299.81,78,20,1.61,US,1621471038
Marsh Harbour,26.5412,-77.0636,297.36,64,100,11.61,BS,1621471320
Wāliṅ,27.9833,83.7667,292.2,98,100,1.27,NP,1621471320
Tocopilla,-22.092,-70.1979,292.39,68,22,3.91,CL,1621471320
Necochea,-38.5473,-58.7368,283.17,80,100,3.72,AR,1621471801
Maumere,-8.6199,122.2111,301.4,71,32,1.49,ID,1621471321
Dickinson,29.4608,-95.0513,293.15,94,90,2.57,US,1621471321
Olkhovka,53.2115,60.6069,284.63,66,0,2.53,RU,1621471321
Fairbanks,64.8378,-147.7164,291.34,36,1,3.6,US,1621471018
Airai,-8.9266,125.4092,294.72,49,73,1.7,TL,1621471801
Kiryat Gat,31.61,34.7642,293.71,100,0,0.45,IL,1621471323
Saravan,39.7196,45.6483,289.15,55,0,4.12,AM,1621471324
Bosaso,11.2842,49.1816,302.62,78,88,1.15,SO,1621471266
Nichinan,31.6,131.3667,294.15,94,75,0.51,JP,1621471324
Salalah,17.0151,54.0924,300.45,85,97,0.09,OM,1621471803
Pochutla,15.7432,-96.4661,301.94,66,10,3.75,MX,1621471325
Tacna,-18.0056,-70.2483,286.65,89,44,0.94,PE,1621471325
Rubiataba,-15.1644,-49.8033,293.08,46,48,0.99,BR,1621471326
Ilulissat,69.2167,-51.1,274.25,71,97,4.45,GL,1621471803
Smidovich,48.6,133.8167,295.4,59,58,4.75,RU,1621471326
Atikokan,48.7555,-91.6216,292.25,76,100,1.86,CA,1621471242
Tyup,42.7276,78.3648,283.93,75,100,0.43,KG,1621471326
Scottsbluff,41.8666,-103.6672,298.28,34,20,4.92,US,1621471327
Pinan,58.68,11.6463,281.54,95,23,3.45,SE,1621471327
Vostok,46.4856,135.8833,295.66,41,94,3.05,RU,1621471804
Esperance,-33.8667,121.9,289.06,81,3,3.37,AU,1621471805
Sibolga,1.7427,98.7792,299.31,74,100,0.76,ID,1621471327
Talnakh,69.4865,88.3972,263.3,86,35,0.92,RU,1621471805
Barrhead,55.7992,-4.3929,282.58,92,93,2.24,GB,1621471328
Nakhon Phanom,17.3333,104.4167,301.04,66,93,2.21,TH,1621471328
Ahvāz,31.3203,48.6693,304.12,15,0,2.06,IR,1621471328
Weihai,37.5017,122.1136,289.02,69,100,5.17,CN,1621471329
Togur,58.3631,82.8265,275.62,47,7,5.27,RU,1621471329
Beloha,-25.1667,45.05,291.3,61,0,5.82,MG,1621471806
Dunedin,-45.8742,170.5036,288.43,55,35,2.19,NZ,1621471806
Bud,39.447,-86.1758,297.83,89,100,2.72,US,1621471330
San Carlos del Zulia,9.0,-71.9135,298.72,81,17,1.89,VE,1621471330
Puerto Carreño,6.189,-67.4859,297.28,88,94,1.64,CO,1621471330
Yel'nya,54.5786,33.1837,284.99,96,100,4.88,RU,1621471331
Laguna,38.421,-121.4238,296.48,31,1,7.2,US,1621471331
Igrim,63.1906,64.4162,286.88,88,100,1.56,RU,1621471266
Ubari,26.5921,12.7805,301.5,14,15,3.55,LY,1621471331
Bocaiúva,-17.1078,-43.815,292.99,47,5,1.01,BR,1621471332
Ribeira Grande,38.5167,-28.7,289.3,91,100,8.23,PT,1621471807
Assiut,27.181,31.1837,297.15,46,0,5.14,EG,1621471333
Severo-Yeniseyskiy,60.3725,93.0408,274.0,56,12,3.11,RU,1621471333
Nicoya,10.1483,-85.452,300.9,75,72,1.7,CR,1621471246
Sharjah city,25.3573,55.4033,303.29,43,0,3.99,AE,1621471313
Fort Nelson,58.8053,-122.7002,288.92,23,40,3.6,CA,1621471273
Itamaracá,-7.7478,-34.8256,298.18,82,4,2.1,BR,1621471333
Bilibino,68.0546,166.4372,275.45,74,99,1.04,RU,1621471334
Martapura,-3.4167,114.85,298.2,89,40,1.0,ID,1621471334
Charter Township of Clinton,42.587,-82.9199,298.71,53,75,5.14,US,1621471335
Rena,61.1348,11.3641,279.33,91,98,2.27,NO,1621471335
Dhidhdhoo,6.8833,73.1,302.52,74,100,7.68,MV,1621471335
Novobiryusinskiy,56.9578,97.7076,279.63,43,100,4.59,RU,1621471336
Kinablangan,7.6947,126.5503,301.96,70,62,0.86,PH,1621471336
Kendal,54.3268,-2.7476,281.73,94,100,1.72,GB,1621471336
Port Lincoln,-34.7333,135.8667,292.04,43,100,1.93,AU,1621471809
Hukuntsi,-24.0,21.75,289.06,41,100,6.24,BW,1621471337
Hofn,64.2539,-15.2082,274.73,76,95,1.06,IS,1621471809
Bhadrāchalam,17.6667,80.8833,302.33,77,22,3.14,IN,1621471337
Płock,52.5468,19.7064,280.13,93,10,3.16,PL,1621471154
Brae,60.3964,-1.353,277.15,87,43,4.44,GB,1621471338
Eyl,7.9803,49.8164,300.99,66,100,9.95,SO,1621471810
Harper,4.375,-7.7169,298.94,82,77,2.37,LR,1621471338
Sioux Lookout,50.1001,-91.917,296.36,56,75,3.6,CA,1621471205
Bukachacha,52.9833,116.9167,283.97,42,100,1.72,RU,1621471338
Sobolevo,54.4299,31.8996,286.01,95,100,5.11,RU,1621471339
Pontianak,-0.0333,109.3333,298.14,92,20,1.62,ID,1621471339
Caravelas,-17.7125,-39.2481,295.13,84,5,1.63,BR,1621471811
Muroto-misakicho,33.2833,134.15,293.15,100,75,2.06,JP,1621471339
Guerrero Negro,27.9769,-114.0611,291.31,74,0,9.28,MX,1621471811
Mbandaka,0.0487,18.2603,296.36,79,35,1.57,CD,1621471340
Qaqortoq,60.7167,-46.0333,276.07,70,47,3.08,GL,1621471812
Dothan,31.2232,-85.3905,300.73,57,100,0.45,US,1621471072
Kalmunai,7.4167,81.8167,299.56,82,100,2.41,LK,1621471340
Consuegra,39.4625,-3.608,290.42,42,77,2.92,ES,1621471341
Ust'-Uda,54.1742,103.0304,278.8,84,100,3.76,RU,1621471341
Mitsamiouli,-11.3847,43.2844,299.34,66,12,2.23,KM,1621471341
Lorengau,-2.0226,147.2712,303.04,68,23,2.16,PG,1621471813
Leningradskiy,69.3833,178.4167,274.46,83,98,3.25,RU,1621471813
Stabat,3.761,98.4513,300.15,94,40,0.73,ID,1621471342
Ararat,39.8317,44.7049,286.34,47,0,2.86,AM,1621471342
Port Hedland,-20.3167,118.5667,297.18,35,0,3.6,AU,1621471814
Ino,33.55,133.4333,293.15,100,75,2.06,JP,1621471343
Tuatapere,-46.1333,167.6833,288.05,72,48,2.7,NZ,1621471271
Coyhaique,-45.5752,-72.0662,278.15,100,75,0.42,CL,1621471688
Ostrovnoy,68.0531,39.5131,287.15,65,88,1.76,RU,1621471343
Cassilândia,-19.1133,-51.7342,293.63,40,0,1.09,BR,1621471344
Dessie,11.1333,39.6333,286.71,32,100,1.49,ET,1621471344
Vytegra,61.0064,36.4481,288.03,93,94,3.63,RU,1621471344
Lata,40.1629,-8.3327,288.15,94,0,1.54,PT,1621471345
Puerto Escondido,15.85,-97.0667,302.15,79,40,3.09,MX,1621471345
Yanam,16.7333,82.2167,302.37,70,85,2.08,IN,1621471345
Cururupu,-1.8283,-44.8683,297.18,92,0,1.12,BR,1621471346
Luocheng,29.3848,104.0286,291.29,93,100,0.88,CN,1621471346
Makkah al Mukarramah,21.4267,39.8261,303.41,17,81,1.27,SA,1621471255
Shingū,33.7333,135.9833,293.7,99,100,0.83,JP,1621471347
Saldanha,-33.0117,17.9442,287.18,95,100,9.27,ZA,1621471815
Halifax,44.6453,-63.5724,285.09,92,90,0.45,CA,1621471132
Sterling,39.0062,-77.4286,298.15,41,1,1.54,US,1621471347
Itaueira,-7.6033,-43.0256,298.92,54,58,1.05,BR,1621471348
Pericos,25.05,-107.7,303.91,42,0,4.28,MX,1621471348
Ongandjera,-17.8833,15.0667,291.3,33,0,3.24,NA,1621471348
St. Pete Beach,27.7253,-82.7412,300.93,51,1,1.34,US,1621471349
Kungurtug,50.5994,97.5228,283.01,80,98,1.99,RU,1621471349
Caraballeda,10.6112,-66.8522,299.19,86,15,4.47,VE,1621471349
Noumea,-22.2763,166.4572,297.59,99,67,5.57,NC,1621471350
Piaçabuçu,-10.4056,-36.4344,297.5,89,24,1.64,BR,1621471350
Qaryat Sulūq,31.6682,20.2521,297.07,26,0,2.49,LY,1621471350
Macapá,0.0389,-51.0664,300.14,89,20,2.06,BR,1621471351
Namatanai,-3.6667,152.4333,303.29,66,81,1.38,PG,1621471351
Qeshm,26.9581,56.2719,302.15,69,4,2.06,IR,1621471352
Porto-Novo,6.4965,2.6036,301.05,82,36,4.96,BJ,1621471269
Thompson,55.7435,-97.8558,275.24,75,75,6.69,CA,1621471523
Kassala,15.451,36.4,302.49,44,11,4.85,SD,1621471352
Maragogi,-9.0122,-35.2225,297.87,84,22,1.52,BR,1621471352
Saint-Augustin,51.226,-58.6502,282.56,68,100,2.03,CA,1621471817
Gómez Palacio,25.5667,-103.5,303.08,16,40,4.12,MX,1621471353
Port Blair,11.6667,92.75,302.02,73,90,2.29,IN,1621471353
Sychëvka,55.8252,34.2736,286.7,95,100,3.04,RU,1621471354
Genhe,50.7833,121.5167,287.19,35,41,0.52,CN,1621471818
Alexandria,31.2156,29.9553,294.13,78,0,2.06,EG,1621471318
Hakkâri Province,37.5833,44.1667,283.57,54,0,1.57,TR,1621471354
Aleppo Governorate,36.25,37.5,292.81,57,0,3.2,SY,1621471355
Upata,8.0086,-62.3989,296.72,81,55,3.44,VE,1621471355
Jaisalmer,26.9147,70.9181,299.76,45,5,6.42,IN,1621471355
Brigantine,39.4101,-74.3646,297.86,66,1,3.47,US,1621471356
Gari,59.4307,62.3497,285.28,65,100,3.19,RU,1621471356
Olafsvik,64.8945,-23.7142,278.1,62,32,3.98,IS,1621471356
Portland,45.5234,-122.6762,288.15,51,75,6.69,US,1621471800
Camacupa,-12.0167,17.4833,286.9,65,32,1.41,AO,1621471357
Tazmalt,36.3868,4.3989,287.48,91,37,2.89,DZ,1621471357
Ende,-8.8432,121.6623,301.38,75,46,1.8,ID,1621471228
Rawson,-43.3002,-65.1023,286.39,91,100,8.75,AR,1621471819
Kutum,14.2,24.6667,296.74,38,0,1.9,SD,1621471358
Cidreira,-30.1811,-50.2056,286.92,74,100,1.5,BR,1621471820
Shelburne,44.0787,-80.2041,296.59,82,100,2.97,CA,1621471358
Poum,-20.2333,164.0167,297.33,72,1,3.64,NC,1621471359
São João da Barra,-21.6403,-41.0511,293.43,81,20,1.47,BR,1621471820
Ibrā’,22.6906,58.5334,300.81,35,6,0.7,OM,1621471359
Bathsheba,13.2167,-59.5167,300.15,65,40,9.26,BB,1621471821
Geraldton,-28.7667,114.6,291.38,65,0,3.99,AU,1621471821
Touros,-5.1989,-35.4608,298.15,88,0,3.09,BR,1621471360
Tual,-5.6667,132.75,299.67,87,100,7.62,ID,1621471360
Prachuap Khiri Khan,12.2167,99.75,299.32,79,100,2.61,TH,1621471361
Sistranda,63.7256,8.834,280.13,72,68,2.79,NO,1621471361
Barberino di Mugello,44.0027,11.2371,284.57,90,26,1.06,IT,1621471362
Kroya,-7.6331,109.2461,300.48,81,89,1.42,ID,1621471362
Funadhoo,6.15,73.2667,302.16,75,43,7.3,MV,1621471362
Granadilla de Abona,28.1188,-16.576,292.65,77,0,3.6,ES,1621471362
Tura,25.5198,90.2201,297.47,94,95,2.8,IN,1621471363
Seredka,58.1584,28.1858,285.01,92,100,2.1,RU,1621471363
Markala,13.7021,-6.0659,307.08,30,100,3.31,ML,1621471363
Isiro,2.7739,27.616,292.41,99,99,1.06,CD,1621471364
Tank,32.2217,70.3793,302.1,39,0,2.39,PK,1621471364
Bayāna,26.9,77.2833,294.99,89,100,5.97,IN,1621471365
Khani,41.9563,42.9566,281.91,70,3,2.93,GE,1621471228
Kuandian,40.7286,124.7847,292.83,47,100,0.83,CN,1621471365
Vaitape,-16.5167,-151.75,300.65,76,100,8.26,PF,1621471366
Maceió,-9.6658,-35.7353,298.84,84,40,0.76,BR,1621471366
Katobu,-4.9408,122.5276,302.03,71,24,2.95,ID,1621471243
North Bend,43.4065,-124.2243,285.88,69,40,6.17,US,1621471823
Moose Factory,51.2585,-80.6094,293.14,68,90,5.66,CA,1621471366
Veere,51.5483,3.6667,283.15,93,9,2.06,NL,1621471367
Evensk,61.95,159.2333,273.84,100,100,0.85,RU,1621471367
Kruisfontein,-34.0033,24.7314,290.16,46,59,3.84,ZA,1621471367
Mossamedes,-15.1961,12.1522,297.15,46,0,4.12,AO,1621471824
Ulladulla,-35.35,150.4667,290.15,39,0,5.14,AU,1621471368
Borogontsy,62.6683,131.1683,281.74,26,100,1.92,RU,1621471368
Longyearbyen,78.2186,15.6401,268.15,80,75,4.12,SJ,1621471528
Moerai,-22.4333,-151.3333,297.69,61,0,5.66,PF,1621471369
Faanui,-16.4833,-151.75,300.66,76,100,8.25,PF,1621471825
Burnie,-41.0667,145.9167,287.56,63,2,5.95,AU,1621471267
Telfs,47.3,11.0667,283.24,99,100,1.34,AT,1621471369
Klaksvík,62.2266,-6.589,275.15,80,20,5.14,FO,1621471826
Beidao,34.5686,105.8933,291.53,49,68,0.55,CN,1621471370
Andros Town,24.7,-77.7667,299.13,72,100,11.33,BS,1621471370
Östersund,63.1792,14.6357,279.4,87,90,4.12,SE,1621471370
Cancún,21.1743,-86.8466,302.15,74,75,4.63,MX,1621471306
Puerto Princesa City,9.7392,118.7353,301.15,83,75,2.06,PH,1621471371
Batagay,67.6333,134.6333,276.25,77,100,2.46,RU,1621471826
Sisimiut,66.9395,-53.6735,272.71,96,100,5.39,GL,1621471827
Dicabisagan,17.0818,122.4157,304.15,65,9,3.4,PH,1621471371
San Cristobal,7.7669,-72.225,302.15,54,40,7.72,VE,1621471798
Ketchikan,55.3422,-131.6461,285.94,66,21,2.85,US,1621471372
Cayenne,4.9333,-52.3333,297.64,90,75,0.45,GF,1621471276
Golden,39.7555,-105.2211,294.86,48,75,1.34,US,1621471106
Vila Velha,-20.3297,-40.2925,294.79,91,75,0.89,BR,1621471827
Riyadh,24.6877,46.7219,306.18,13,0,0.0,SA,1621471562
Honiara,-9.4333,159.95,303.03,67,100,3.02,SB,1621471372
Atambua,-9.1061,124.8925,300.44,57,96,1.37,ID,1621471373
Adrar,20.5022,-10.0711,305.48,17,96,1.33,MR,1621471373
Vao,-22.6667,167.4833,296.03,77,16,7.87,NC,1621471828
Bell Ville,-32.6259,-62.6887,290.19,79,100,3.52,AR,1621471373
Torzhok,57.0436,34.9622,287.18,89,100,4.64,RU,1621471374
Saint George,37.1041,-113.5841,307.15,5,1,9.77,US,1621471829
Bojnourd,37.4747,57.329,287.15,58,0,0.52,IR,1621471374
Chapais,49.7834,-74.8492,297.03,61,9,2.48,CA,1621471254
Luba,3.4568,8.5547,298.09,83,100,3.27,GQ,1621471375
Bow Island,49.8668,-111.3684,285.36,37,100,4.63,CA,1621471375
Dingle,10.9995,122.6711,302.54,72,100,0.68,PH,1621471829
Zhanakorgan,43.9098,67.2495,295.09,42,0,3.36,KZ,1621471375
Haines Junction,60.7522,-137.5108,287.12,33,17,6.69,CA,1621471830
Hauge i Dalane,58.3436,6.2812,282.02,93,49,6.35,NO,1621471376
Yerbogachën,61.2767,108.0108,277.38,31,11,1.45,RU,1621471830
Cabedelo,-6.9811,-34.8339,297.52,79,0,3.49,BR,1621471376
Karratha,-20.7377,116.8463,299.12,29,5,5.54,AU,1621471831
Kloulklubed,7.0419,134.2556,302.43,75,69,5.61,PW,1621471377
Saint-Maximin-la-Sainte-Baume,43.4521,5.8622,286.48,44,94,2.24,FR,1621471377
Havøysund,70.9963,24.6622,276.64,93,100,3.61,NO,1621471255
Alta Floresta,-9.8756,-56.0861,297.05,94,0,0.0,BR,1621471377
Matai,-8.3,31.5167,285.31,97,98,1.99,TZ,1621471378
Novodugino,55.6305,34.2842,286.28,94,100,3.44,RU,1621471378
Tiarei,-17.5333,-149.3333,303.16,73,68,9.49,PF,1621471378
Suntar,62.1444,117.6319,280.27,27,98,4.55,RU,1621471379
Mount Isa,-20.7333,139.5,298.02,31,7,5.66,AU,1621471254
Whitehorse,60.7161,-135.0538,288.58,30,75,4.47,CA,1621471379
Kathu,7.9178,98.3332,304.61,76,100,5.61,TH,1621471379
Limbang,4.75,115.0,298.15,94,75,3.09,MY,1621471380
Grindavik,63.8424,-22.4338,276.15,93,40,2.57,IS,1621471832
Campbell River,50.0163,-125.2446,288.36,42,75,0.89,CA,1621471200
Mahon,39.8885,4.2658,288.15,67,0,4.63,ES,1621471381
Dingcheng,32.1272,115.0394,292.3,76,100,2.05,CN,1621471381
Emerald,-23.5333,148.1667,295.37,60,0,4.12,AU,1621471833
Aklavik,68.2191,-135.0107,287.55,48,34,4.29,CA,1621471833
Ust-Kuyga,70.0167,135.6,274.46,79,89,3.42,RU,1621471834
Lüderitz,-26.6481,15.1594,288.02,78,38,1.66,NA,1621471239
Champotón,19.35,-90.7167,299.46,84,8,6.33,MX,1621471382
Knysna,-34.0363,23.0471,285.15,87,20,3.09,ZA,1621471382
Broken Hill,-31.95,141.4333,287.99,41,100,1.54,AU,1621471383
Karaton,-6.3424,106.1045,300.9,82,51,0.48,ID,1621471383
Okakarara,-20.5833,17.4333,287.21,43,0,1.27,NA,1621471383
Surgut,61.25,73.4167,277.15,56,0,3.0,RU,1621471384
São Félix do Xingu,-6.6447,-51.995,296.06,95,89,0.87,BR,1621471384
Dunbar,38.3606,-81.7374,300.15,44,40,1.85,US,1621471384
Aliaga,15.5167,120.8667,304.87,44,97,2.09,PH,1621471385
Sambava,-14.2667,50.1667,294.8,82,2,5.44,MG,1621471271
Awjilah,29.1081,21.2869,299.4,23,0,3.69,LY,1621471385
Paamiut,61.994,-49.6678,276.05,78,100,5.9,GL,1621471385
Berlevåg,70.8578,29.0864,278.09,94,100,3.81,NO,1621471245
Anadyr,64.75,177.4833,275.43,93,40,7.6,RU,1621471386
San Buenaventura,27.0833,-101.5333,302.66,41,40,4.42,MX,1621471386
Bentiu,9.2333,29.8333,297.56,81,100,1.65,SS,1621471387
Vanavara,60.34,102.2797,277.61,45,15,1.47,RU,1621471387
Viranşehir,37.2353,39.7631,295.17,32,10,1.95,TR,1621471387
Río Gallegos,-51.6226,-69.2181,281.15,87,90,4.12,AR,1621471388
Puerto Quijarro,-17.7833,-57.7667,296.84,42,1,0.61,BO,1621471388
Tomatlán,19.9333,-105.25,298.72,62,0,2.53,MX,1621471388
Port Augusta,-32.5,137.7667,290.93,42,100,2.57,AU,1621471836
Japura,-0.3167,102.35,297.45,95,100,0.7,ID,1621471389
College,64.8569,-147.8028,291.33,37,75,2.57,US,1621471389
Warmbad,-28.45,18.7333,287.85,35,63,2.4,NA,1621471389
Zelenogorskiy,55.0333,87.0,277.44,46,70,3.15,RU,1621471390
Jiuquan,39.7432,98.5174,293.11,17,0,0.47,CN,1621471390
Muros,42.7762,-9.0603,285.43,58,100,1.81,ES,1621471390
Kirakira,-10.4544,161.9205,300.22,86,100,3.36,SB,1621471837
Chui,-33.6971,-53.4616,283.07,84,100,1.9,UY,1621471838
Vallenar,-28.5708,-70.7581,287.06,75,100,0.85,CL,1621471276
Porosozero,62.7191,32.727,288.65,86,76,5.54,RU,1621471391
Hashtrūd,37.4779,47.0508,287.3,40,0,0.38,IR,1621471391
Maracaju,-21.6144,-55.1683,294.59,40,8,2.4,BR,1621471333
Moranbah,-22.0016,148.0466,295.89,53,0,9.51,AU,1621471392
Port Hardy,50.6996,-127.4199,284.15,66,75,7.2,CA,1621471838
Sørland,67.667,12.6934,278.75,78,100,6.91,NO,1621471839
Tiznit Province,29.5833,-9.5,299.38,32,95,0.96,MA,1621471392
Charlestown,-32.95,151.6667,290.37,62,19,3.91,AU,1621471394
Bubaque,11.2833,-15.8333,299.31,81,100,5.19,GW,1621471394
Alice Springs,-23.7,133.8833,289.9,19,0,5.59,AU,1621471539
Buchanan,5.8808,-10.0467,297.13,87,68,2.57,LR,1621471394
Hohhot,40.8106,111.6522,287.31,52,20,2.59,CN,1621471839
Kahului,20.8947,-156.47,301.16,61,40,12.35,US,1621471644
Tabas,33.5959,56.9244,300.71,18,0,1.72,IR,1621471249
Vila Franca do Campo,37.7167,-25.4333,292.15,94,75,1.03,PT,1621471840
Omsukchan,62.5333,155.8,272.1,93,100,2.73,RU,1621471395
Samarkand,39.6542,66.9597,295.83,27,54,6.17,UZ,1621471395
Moses Lake,47.1301,-119.2781,291.35,22,40,7.72,US,1621471396
Harrisburg,40.2737,-76.8844,299.44,60,75,1.43,US,1621471396
Melita,49.2681,-100.9967,296.23,26,15,4.18,CA,1621471396
Bunia,1.5667,30.25,290.09,93,99,0.76,CD,1621471397
Jieshi,22.8134,115.8257,302.71,73,78,5.77,CN,1621471397
Yumen,40.2833,97.2,292.85,15,0,1.37,CN,1621471398
Belgrade,44.804,20.4651,286.23,97,75,1.34,RS,1621471128
Azul,-36.777,-59.8585,284.45,94,100,1.37,AR,1621471287
Makakilo City,21.3469,-158.0858,299.09,66,75,9.62,US,1621471271
Pacific Grove,36.6177,-121.9166,292.37,71,20,3.58,US,1621471398
Mayo,38.8876,-76.5119,295.93,74,100,2.24,US,1621471399
Conde,-7.2597,-34.9075,297.15,88,0,1.54,BR,1621471399
Darhan,49.4867,105.9228,288.93,51,68,1.71,MN,1621471399
Tessalit,20.1986,1.0114,306.82,17,43,6.12,ML,1621471400
Santiago del Estero,-27.7951,-64.2615,295.39,63,80,3.65,AR,1621471148
Saint Anthony,45.0205,-93.218,295.37,83,90,3.09,US,1621471400
Anito,12.4497,125.2886,302.14,75,100,3.49,PH,1621471401
Havre-St-Pierre,50.2334,-63.5986,279.35,93,90,1.03,CA,1621471842
Iberia,29.9502,-91.7507,300.19,82,20,7.43,US,1621471401
Selfoss,63.9331,-20.9971,277.09,95,100,2.19,IS,1621471401
Xinmin,41.9908,122.8253,295.29,34,100,7.15,CN,1621471147
Esim,4.8699,-2.2405,300.11,81,100,3.83,GH,1621471402
Shimoda,34.6667,138.95,294.21,87,100,3.71,JP,1621471402
Mocoa,1.1493,-76.6466,295.16,95,89,0.94,CO,1621471403
Buraidah,26.326,43.975,301.15,21,0,1.54,SA,1621471403
Peniche,39.3558,-9.3811,290.16,78,26,7.43,PT,1621471403
Mafinga,-7.25,35.0667,293.22,63,100,1.72,TZ,1621471404
Rio Grande,-32.035,-52.0986,279.79,77,100,2.45,BR,1621471843
Xiuyan,40.2928,123.2744,291.87,57,100,2.47,CN,1621471404
Trairi,-3.2778,-39.2689,297.62,91,9,2.96,BR,1621471147
Farmington,36.7281,-108.2187,301.15,13,1,6.17,US,1621471405
Pasni,25.2631,63.471,302.22,72,0,4.38,PK,1621471405
Miandrivazo,-19.5167,45.4667,294.43,60,0,2.17,MG,1621471405
Aswān,24.0934,32.907,301.14,21,0,4.26,EG,1621471405
Asha,54.9973,57.2722,284.68,74,0,2.02,RU,1621471406
Comodoro Rivadavia,-45.8667,-67.5,286.07,76,75,1.03,AR,1621471406
Yatou,37.15,122.3833,287.1,85,100,4.27,CN,1621471406
Qasigiannguit,68.8193,-51.1922,274.15,86,90,3.6,GL,1621471407
Kaniama,-7.5667,24.1833,294.72,63,100,1.31,CD,1621471407
The Valley,18.217,-63.0578,300.43,75,100,4.86,AI,1621471125
Cochrane,51.1834,-114.4687,279.5,60,90,6.82,CA,1621471407
Trelew,-43.249,-65.3051,287.01,86,100,6.93,AR,1621471408
Copiapó,-27.3667,-70.3333,286.98,75,100,0.77,CL,1621471564
Praia,14.9215,-23.5087,297.45,64,0,3.09,CV,1621471408
Gizo Government Station,-8.103,156.8419,302.59,67,100,1.32,SB,1621471408
Dāmghān,36.1683,54.348,294.76,31,0,1.65,IR,1621471409
Ginir,7.1333,40.7,286.8,81,100,2.76,ET,1621471409
Nizip,37.0097,37.7942,295.57,44,4,1.87,TR,1621471410
Pingliang,35.5392,106.6861,292.48,32,29,1.3,CN,1621471410
Morón,-34.6534,-58.6198,288.13,78,100,3.08,AR,1621471727
Kununurra,-15.7667,128.7333,299.14,44,8,2.57,AU,1621471263
Zhigansk,66.7697,123.3711,277.46,48,15,0.55,RU,1621471255
San Quintín,30.4833,-115.95,291.09,76,3,7.64,MX,1621471846
Granada,37.25,-3.25,288.87,52,100,0.59,ES,1621471411
Chandler,33.3062,-111.8412,311.62,11,1,2.68,US,1621471166
Ternate,0.8,127.4,301.47,76,91,0.81,ID,1621471846
Strezhevoy,60.7333,77.5889,275.14,45,95,2.79,RU,1621471411
Zhaozhou,45.6833,125.3167,298.95,29,4,6.53,CN,1621471411
Ayagoz,47.9714,80.4392,282.84,67,4,8.74,KZ,1621471412
Meulaboh,4.1363,96.1285,298.72,88,100,1.47,ID,1621471412
Sabang,5.8933,95.3214,302.16,74,100,7.12,ID,1621471412
Kīhei,20.785,-156.4656,301.16,68,40,4.6,US,1621471208
Gualeguay,-33.1416,-59.3097,288.17,57,100,2.65,AR,1621471847
Atar,20.5169,-13.0499,303.52,15,0,3.14,MR,1621471413
Souillac,-20.5167,57.5167,295.02,75,58,9.9,MU,1621471848
Kitimat,54.0524,-128.6534,287.36,78,97,1.19,CA,1621471413
Pishin,30.5803,66.9961,292.86,13,0,1.28,PK,1621471414
Praia da Vitória,38.7333,-27.0667,291.9,100,75,3.5,PT,1621471848
Yuancheng,36.652,107.7896,292.07,33,0,2.85,CN,1621471414
Kikwit,-5.041,18.8162,295.41,71,12,0.63,CD,1621471414
Jandaia do Sul,-23.6031,-51.6433,292.61,54,0,1.66,BR,1621471415
Ngunguru,-35.6167,174.5,292.13,65,100,2.42,NZ,1621471415
Båtsfjord,70.6345,29.7185,278.14,96,100,3.09,NO,1621471415
Tieli,46.95,128.05,296.32,41,5,5.94,CN,1621471416
Baculin,7.4525,126.5842,302.2,70,68,0.94,PH,1621471416
Berdigestyakh,62.0989,126.6992,281.62,28,26,2.37,RU,1621471849
Mehamn,71.0357,27.8492,278.26,92,100,3.07,NO,1621471850
Itaituba,-4.2761,-55.9836,296.78,97,100,0.1,BR,1621471417
Abu Samrah,35.3029,37.1841,293.76,40,0,1.17,SY,1621471417
Maromitsa,59.8683,48.0123,286.17,83,78,2.45,RU,1621471417
San Ramon,37.7799,-121.978,294.61,52,1,5.36,US,1621471195
Semīrom,31.4167,51.5667,287.21,28,0,0.91,IR,1621471418
Yavas,54.4159,42.8491,287.23,97,90,2.75,RU,1621471418
Partizanskoye,55.5006,94.39,278.72,63,100,3.57,RU,1621471418
Dongsheng,39.8161,109.9776,289.12,44,0,3.99,CN,1621471850
Henties Bay,-22.116,14.2845,287.51,83,0,1.53,NA,1621471419
Davila,18.4726,120.5763,304.15,74,20,1.54,PH,1621471419
Millville,39.4021,-75.0393,300.11,51,1,1.54,US,1621471420
Huangmei,30.1924,116.025,292.75,78,100,2.16,CN,1621471336
Rundu,-17.9333,19.7667,286.86,51,0,2.39,NA,1621471420
Birjand,32.8663,59.2211,290.41,22,0,3.09,IR,1621471420
Mayya,61.7333,130.2811,280.77,35,58,1.31,RU,1621471421
Verkhniy Landekh,56.8389,42.5994,288.65,84,0,3.57,RU,1621471421
Kayerkan,69.3497,87.7602,262.05,96,98,2.08,RU,1621471421
San Borja,-14.8167,-66.85,298.1,73,98,0.91,BO,1621471422
Samaná,19.2056,-69.3369,297.63,85,100,0.56,DO,1621471422
Lancaster,40.2504,-76.2499,298.87,65,1,1.33,US,1621471423
Piedras Negras,28.7,-100.5167,294.84,75,100,0.9,MX,1621471423
Fayaoué,-20.65,166.5333,297.49,74,43,5.25,NC,1621471423
Ucluelet,48.9329,-125.5528,289.87,75,35,1.79,CA,1621471554
