City,Latitude,Longitude,Max Temp,Humidity,Clouds,Wind (in mph),Country,Date
Mayor Pablo Lagerenza,-19.9309,-60.7718,297.08,53,24,2.85,PY,1621475246
Laguna,38.421,-121.4238,297.84,39,1,3.58,US,1621475246
Rikitea,-23.1203,-134.9692,296.02,61,54,7.96,PF,1621475246
Saint George,37.1041,-113.5841,306.48,9,1,1.79,US,1621475106
Talnakh,69.4865,88.3972,264.35,84,30,0.9,RU,1621475247
Albany,42.6001,-73.9662,293.09,52,100,1.63,US,1621475247
Faanui,-16.4833,-151.75,300.78,76,100,8.2,PF,1621475247
Busselton,-33.65,115.3333,290.83,62,16,2.16,AU,1621475248
Landskrona,55.8708,12.8302,283.23,88,10,4.06,SE,1621475248
College,64.8569,-147.8028,290.33,36,1,3.09,US,1621475248
Nhulunbuy,-12.2333,136.7667,302.49,70,75,8.23,AU,1621475249
Cape Town,-33.9258,18.4232,289.2,93,75,1.79,ZA,1621475249
Butaritari,3.0707,172.7902,301.05,78,71,5.19,KI,1621475249
Mumford,5.2618,-0.759,299.48,88,66,3.99,GH,1621475249
Linxia Chengguanzhen,35.6003,103.2064,287.91,44,71,1.44,CN,1621475250
Hamilton,39.1834,-84.5333,296.01,81,20,1.51,US,1621475250
Akureyri,65.6835,-18.0878,273.11,80,90,1.54,IS,1621475250
Brigantine,39.4101,-74.3646,295.65,73,1,3.07,US,1621475251
New Norfolk,-42.7826,147.0587,287.46,61,34,2.68,AU,1621475251
Vaini,-21.2,-175.2,300.24,78,75,4.12,TO,1621475251
Bluff,-46.6,168.3333,288.6,77,86,2.96,NZ,1621475252
Puerto Ayora,-0.7393,-90.3518,296.79,88,8,2.68,EC,1621475252
Vigrestad,58.5667,5.7,282.04,90,47,7.97,NO,1621475252
Dikson,73.5069,80.5464,266.19,92,100,2.8,RU,1621475252
Nikolskoye,59.7035,30.7861,287.26,91,98,2.57,RU,1621475253
Bathsheba,13.2167,-59.5167,300.49,67,40,8.01,BB,1621475253
Ribeira Grande,38.5167,-28.7,289.09,91,100,9.08,PT,1621475253
Thompson,55.7435,-97.8558,273.24,80,90,4.63,CA,1621475106
Port Elizabeth,-33.918,25.5701,287.31,100,0,1.54,ZA,1621475254
Ushuaia,-54.8,-68.3,277.96,93,90,3.6,AR,1621475254
Punta Arenas,-53.15,-70.9167,279.88,79,100,4.51,CL,1621475122
Jamestown,42.097,-79.2353,294.95,51,1,0.0,US,1621475002
Chokurdakh,70.6333,147.9167,273.09,100,100,3.09,RU,1621475255
Taltal,-25.4,-70.4833,289.62,77,90,1.06,CL,1621475255
Mataura,-46.1927,168.8643,288.42,67,53,1.36,NZ,1621475245
Nísia Floresta,-6.0911,-35.2086,298.6,87,0,2.83,BR,1621475255
Talcahuano,-36.7167,-73.1167,284.97,100,90,2.06,CL,1621475169
Waipawa,-41.4122,175.5153,288.21,62,1,2.91,NZ,1621475256
Preeceville,51.95,-102.6677,280.92,51,11,5.57,CA,1621475256
Juneau,58.3019,-134.4197,288.15,61,40,1.22,US,1621475205
Necochea,-38.5473,-58.7368,282.61,77,100,3.46,AR,1621475256
Topeka,39.0483,-95.678,293.94,92,90,1.54,US,1621475186
Arraial do Cabo,-22.9661,-42.0278,294.77,70,44,1.61,BR,1621475257
Clyde River,70.4692,-68.5914,264.28,73,1,7.2,CA,1621475257
Cristinápolis,-11.4756,-37.7553,293.31,96,86,1.47,BR,1621475257
Hithadhoo,-0.6,73.0833,302.12,69,23,3.94,MV,1621475258
Saint Paul Harbor,57.79,-152.4072,278.88,93,90,9.77,US,1621475258
Barabai,-2.5833,115.3833,301.88,74,61,1.07,ID,1621475258
Havre-St-Pierre,50.2334,-63.5986,279.35,93,90,2.06,CA,1621475258
Kondinskoye,59.6481,67.41,283.36,69,100,4.84,RU,1621475259
Santa Isabel Rio Negro,-0.4139,-65.0192,295.82,97,100,0.41,BR,1621475259
Yeppoon,-23.1333,150.7333,298.03,56,1,7.36,AU,1621475259
Hilo,19.7297,-155.09,299.0,71,90,5.14,US,1621475172
George Town,5.4112,100.3354,301.11,87,20,0.89,MY,1621475260
Khani,41.9563,42.9566,281.91,72,5,3.04,GE,1621475260
Bantry,51.6833,-9.45,281.86,96,100,11.81,IE,1621475260
Barrow,71.2906,-156.7887,272.16,86,90,5.14,US,1621475261
Coahuayana Viejo,18.7333,-103.6833,296.85,71,0,1.13,MX,1621475261
Klaksvík,62.2266,-6.589,275.66,71,98,5.9,FO,1621475261
Reus,41.1561,1.1069,289.71,59,0,2.68,ES,1621475262
Port Alfred,-33.5906,26.891,295.96,38,21,5.92,ZA,1621475262
Bethel,41.3712,-73.414,293.24,65,100,1.36,US,1621475262
Geraldton,-28.7667,114.6,295.38,55,0,3.75,AU,1621475262
Coquimbo,-29.9533,-71.3436,288.21,79,100,1.07,CL,1621475194
Tasiilaq,65.6145,-37.6368,268.24,72,21,2.14,GL,1621475263
Bielsk Podlaski,52.7651,23.1865,282.73,95,86,4.06,PL,1621475263
Bud,39.447,-86.1758,295.18,90,100,2.75,US,1621475264
Salto del Guairá,-24.0625,-54.3069,291.56,48,1,2.73,PY,1621475264
Hermanus,-34.4187,19.2345,288.6,86,100,7.32,ZA,1621475264
Margate,51.3813,1.3862,282.98,82,98,0.45,GB,1621475264
Saint-Philippe,-21.3585,55.7679,294.92,80,98,8.8,RE,1621475265
Brasília de Minas,-16.2064,-44.4333,290.96,45,22,1.73,BR,1621475265
Sitka,57.0531,-135.33,285.09,66,20,6.69,US,1621475265
Honningsvåg,70.9821,25.9704,277.9,92,100,3.09,NO,1621475266
High Level,58.5169,-117.136,283.21,24,20,2.58,CA,1621475266
Channel-Port aux Basques,47.5702,-59.1367,278.51,91,78,4.36,CA,1621475266
Lupiro,-8.3833,36.6667,291.8,81,90,1.28,TZ,1621475267
Māngrol,21.1167,70.1167,301.75,77,70,3.57,IN,1621475242
Villa San Giovanni,38.2276,15.6386,292.95,76,0,0.45,IT,1621475267
Cherskiy,68.75,161.3,280.94,53,88,2.91,RU,1621475267
Mahébourg,-20.4081,57.7,294.96,73,73,10.75,MU,1621475184
Kiunga,-6.1219,141.2906,303.17,72,99,1.84,PG,1621475268
Homer,59.6425,-151.5483,282.64,66,90,3.09,US,1621475268
Sheksna,59.21,38.5107,288.78,91,100,3.8,RU,1621475268
Avarua,-21.2078,-159.775,301.18,69,20,7.72,CK,1621475268
Hirara,24.8,125.2833,303.3,74,75,8.75,JP,1621475269
La Peca,-5.6111,-78.435,293.54,86,72,1.73,PE,1621475269
Rāmshīr,30.8946,49.4092,300.01,9,0,4.34,IR,1621475269
Port Moresby,-9.4431,147.1797,302.83,70,75,6.17,PG,1621475270
Kahului,20.8947,-156.47,301.16,62,20,13.89,US,1621475270
Bredasdorp,-34.5322,20.0403,288.31,89,100,3.21,ZA,1621475270
Bengkulu,-3.8004,102.2655,299.54,84,100,0.95,ID,1621475271
Suciu de Sus,47.4333,24.0333,282.69,91,100,2.31,RO,1621475271
Norman Wells,65.282,-126.8329,285.17,35,75,3.09,CA,1621475271
East London,-33.0153,27.9116,297.56,32,100,6.22,ZA,1621475271
Fort Nelson,58.8053,-122.7002,288.92,23,20,2.06,CA,1621475107
Kruisfontein,-34.0033,24.7314,290.04,48,19,3.7,ZA,1621475272
Cartagena,10.3997,-75.5144,300.1,85,23,4.85,CO,1621475272
Yaan,7.3833,8.5667,298.91,79,85,4.19,NG,1621475272
Tabriz,38.08,46.2919,288.85,41,0,4.12,IR,1621475273
Severo-Kuril'sk,50.6789,156.125,279.58,83,68,2.33,RU,1621475273
Souillac,-20.5167,57.5167,295.02,75,99,10.73,MU,1621475273
Avera,33.194,-82.5271,297.08,81,99,3.61,US,1621475274
Kokopo,-4.352,152.2633,303.32,64,92,2.51,PG,1621475274
Asău,46.4333,26.4,285.35,53,100,1.68,RO,1621475274
Zinder,13.8072,8.9881,301.91,14,94,2.54,NE,1621475274
Zeya,53.75,127.2667,281.34,74,99,1.37,RU,1621475275
Kidal,18.4411,1.4078,306.12,23,43,4.57,ML,1621475275
Mokhsogollokh,61.4681,128.9203,282.2,40,63,2.5,RU,1621475275
Aban,56.67,96.06,280.64,42,100,4.78,RU,1621475276
Ürümqi,43.801,87.6005,295.68,35,0,1.11,CN,1621475276
Kachīry,53.0675,76.1036,284.95,47,53,5.63,KZ,1621475276
Kaseda-shirakame,31.4167,130.3167,297.72,90,100,8.56,JP,1621475277
Mayo,38.8876,-76.5119,296.98,72,1,2.63,US,1621475277
Kholm,59.2667,32.85,285.8,97,38,1.58,RU,1621475277
Nanortalik,60.1432,-45.2371,275.53,78,5,3.36,GL,1621475277
Port Hedland,-20.3167,118.5667,302.18,16,0,5.14,AU,1621475278
Mackay,-21.15,149.2,299.29,69,5,9.77,AU,1621475278
Heide,54.2,9.1,282.2,93,3,3.09,DE,1621475279
Yulara,-25.2406,130.9889,291.06,22,100,3.6,AU,1621475279
Mar del Plata,-38.0023,-57.5575,284.33,61,0,0.45,AR,1621475279
Hong Kong,22.2855,114.1577,305.35,76,100,0.45,HK,1621475250
Pokaran,26.9167,71.9167,300.58,46,22,5.38,IN,1621475279
Upernavik,72.7868,-56.1549,269.93,78,10,4.07,GL,1621475280
Amuntai,-2.4177,115.2494,301.42,77,55,0.81,ID,1621475280
Biak,-0.9131,122.8766,300.91,75,93,3.71,ID,1621475280
Vanderhoof,54.0166,-124.0198,284.63,56,100,1.16,CA,1621475106
Kaitangata,-46.2817,169.8464,289.22,63,81,1.44,NZ,1621475281
Jaru,-10.4389,-62.4664,298.13,79,96,1.17,BR,1621474994
Tuktoyaktuk,69.4541,-133.0374,276.15,70,20,8.23,CA,1621475281
Mirny,62.5353,113.9611,278.04,32,100,3.01,RU,1621475282
Cabo San Lucas,22.8909,-109.9124,302.32,72,0,4.44,MX,1621475282
Kavaratti,10.5669,72.642,302.01,75,100,6.23,IN,1621475282
Tura,25.5198,90.2201,298.95,89,100,2.61,IN,1621475102
Flagstaff,35.1981,-111.6513,295.45,22,1,1.79,US,1621475081
Kozhva,65.1073,57.0459,292.25,63,87,2.74,RU,1621475283
Lengshuijiang,27.6881,111.4294,291.14,93,100,1.32,CN,1621475283
Ovalle,-30.5983,-71.2003,288.0,74,100,0.95,CL,1621475013
Hasaki,35.7333,140.8333,295.31,79,100,4.04,JP,1621475284
Touros,-5.1989,-35.4608,298.65,78,3,4.86,BR,1621475157
Tazovsky,67.4667,78.7,266.11,89,81,2.89,RU,1621475284
Qaanaaq,77.484,-69.3632,271.27,80,42,3.39,GL,1621475284
Kapaa,22.0752,-159.319,300.33,70,75,1.79,US,1621475285
Atuona,-9.8,-139.0333,299.9,77,16,7.75,PF,1621475285
Bambous Virieux,-20.3428,57.7575,294.94,73,66,10.58,MU,1621475285
Lālmohan,22.3384,90.7419,304.22,68,98,5.69,BD,1621475286
Krasne,49.9145,24.6134,280.79,97,15,2.45,UA,1621475286
Conakry,9.538,-13.6773,299.61,81,100,1.49,GN,1621475086
Tsaratanana,-16.7833,47.65,292.05,78,7,5.15,MG,1621475286
Hualmay,-11.0964,-77.6139,290.52,88,23,4.22,PE,1621475287
Pisco,-13.7,-76.2167,292.18,82,0,5.14,PE,1621475076
Chimbote,-9.0853,-78.5783,290.89,86,72,3.33,PE,1621475287
Kalmunai,7.4167,81.8167,300.55,80,87,2.7,LK,1621475287
Fort-Shevchenko,44.5086,50.263,291.76,69,5,8.94,KZ,1621475288
Airai,-8.9266,125.4092,296.31,45,73,1.77,TL,1621475288
Inhambane,-23.865,35.3833,293.77,68,5,2.92,MZ,1621475288
Yellowknife,62.456,-114.3525,277.44,30,20,0.45,CA,1621475227
Nouadhibou,20.931,-17.0347,292.14,88,0,9.26,MR,1621475289
Kiama,-34.6833,150.8667,294.58,54,79,1.34,AU,1621475289
Aklavik,68.2191,-135.0107,286.61,47,42,3.94,CA,1621475290
Mutare,-18.9707,32.6709,284.44,97,5,0.99,ZW,1621475290
Kununurra,-15.7667,128.7333,303.14,30,7,4.12,AU,1621475290
Timbiquí,2.7717,-77.6654,297.35,93,89,0.81,CO,1621475290
Roebourne,-20.7833,117.1333,300.38,21,1,6.78,AU,1621475291
Ambilobe,-13.2,49.05,292.49,86,10,1.5,MG,1621475291
Lázaro Cárdenas,17.9583,-102.2,298.81,64,0,2.58,MX,1621475292
Tiksi,71.6872,128.8694,272.56,93,100,3.75,RU,1621475292
Atar,20.5169,-13.0499,302.52,15,0,3.12,MR,1621475292
Castro,-24.7911,-50.0119,283.94,52,1,1.09,BR,1621475292
Dunedin,-45.8742,170.5036,288.6,55,36,2.49,NZ,1621475293
Carnarvon,-24.8667,113.6333,294.19,64,0,4.12,AU,1621475293
Flin Flon,54.7682,-101.865,274.8,60,100,5.11,CA,1621475293
Karlivka,49.4567,35.1295,284.28,96,100,5.53,UA,1621475294
Wanning,18.8003,110.3967,304.32,65,92,6.96,CN,1621475294
San Cristobal,7.7669,-72.225,292.13,99,66,1.42,VE,1621475294
Ostrovnoy,68.0531,39.5131,285.91,70,55,0.58,RU,1621475294
Ha Tinh,18.3333,105.9,307.43,52,100,2.05,VN,1621475295
Brownsville,25.9018,-97.4975,294.12,91,100,2.24,US,1621475295
Fortuna,40.5982,-124.1573,287.3,66,75,4.47,US,1621475295
Buin,-33.7333,-70.75,287.45,80,100,0.79,CL,1621475296
Mandera,3.9366,41.867,298.21,67,44,5.95,KE,1621475296
Lagoa,39.05,-27.9833,288.26,85,100,7.1,PT,1621475296
Amapá,1.0,-52.0,295.07,99,64,0.89,BR,1621475297
Nelson Bay,-32.7167,152.15,293.31,61,64,0.89,AU,1621475297
Narsaq,60.9167,-46.05,278.27,67,60,1.81,GL,1621475297
De Aar,-30.6497,24.0123,288.81,34,87,4.75,ZA,1621475298
Kumul,42.8,93.45,298.33,13,63,3.91,CN,1621475298
San Lorenzo,-25.3333,-57.5333,295.67,55,0,3.51,PY,1621475298
Goderich,43.7501,-81.7165,297.33,35,100,2.06,CA,1621475299
Hobart,-42.8794,147.3294,287.66,51,20,1.79,AU,1621475103
Srednekolymsk,67.45,153.6833,279.9,63,91,4.81,RU,1621475299
Anadyr,64.75,177.4833,276.43,94,20,6.71,RU,1621475299
Lebu,-37.6167,-73.65,284.88,80,55,5.32,CL,1621475300
Mossamedes,-15.1961,12.1522,297.1,45,0,3.83,AO,1621475300
Maoming,21.65,110.9,302.89,73,100,5.18,CN,1621475300
Liwale,-9.7667,37.9333,288.94,74,88,2.2,TZ,1621475300
Coyhaique,-45.5752,-72.0662,278.12,100,75,2.06,CL,1621475301
Kirov,58.5966,49.6601,287.78,71,11,2.93,RU,1621475301
Ponta do Sol,32.6667,-17.1,296.5,58,4,2.52,PT,1621475301
Žemaičių Naumiestis,55.3592,21.7022,280.66,93,98,2.48,LT,1621475302
Ayamé,5.6083,-3.1563,296.93,96,86,1.43,CI,1621475302
Whitehorse,60.7161,-135.0538,288.76,35,75,4.02,CA,1621475157
Polovinnoye,54.7914,65.9864,287.53,51,34,0.36,RU,1621475302
Lüderitz,-26.6481,15.1594,287.97,83,5,2.81,NA,1621475303
Toora-Khem,52.4675,96.11,278.5,95,100,1.4,RU,1621475303
Tecolutla,20.4833,-97.0167,297.85,71,100,1.42,MX,1621475303
Madimba,-10.4,40.3333,294.77,91,20,4.08,TZ,1621475304
Marand,38.4329,45.7749,289.34,41,0,1.41,IR,1621475304
Usinsk,65.9939,57.5281,292.04,64,100,2.47,RU,1621475304
Olafsvik,64.8945,-23.7142,277.58,67,18,4.49,IS,1621475305
Artesia,33.8658,-118.0831,297.7,66,1,2.24,US,1621475210
Port Lincoln,-34.7333,135.8667,292.75,45,100,1.24,AU,1621475305
Miandrivazo,-19.5167,45.4667,294.47,60,0,2.24,MG,1621475166
Chui,-33.6971,-53.4616,282.77,86,100,1.42,UY,1621475305
Denia,38.8408,0.1057,291.23,84,73,2.24,ES,1621475306
Stavern,59.0,10.0333,281.68,84,9,3.68,NO,1621475306
Ailigandí,9.2333,-78.0167,299.44,88,8,2.65,PA,1621475306
Cairns,-16.9167,145.7667,298.74,89,40,6.17,AU,1621475250
Tabou,4.423,-7.3528,298.87,80,100,2.15,CI,1621475307
Vila Franca do Campo,37.7167,-25.4333,291.38,92,40,2.1,PT,1621475307
Russell,32.3502,-85.1999,297.75,63,1,4.39,US,1621475123
Burns Lake,54.2331,-125.7533,285.83,78,96,2.02,CA,1621475308
Uyovu,-3.2833,31.5258,290.69,91,100,0.11,TZ,1621475308
Makueni Boma,-1.8041,37.6203,289.01,92,100,0.49,KE,1621475308
Grindavik,63.8424,-22.4338,276.41,74,40,0.94,IS,1621475308
Constitución,-35.3333,-72.4167,286.68,94,100,3.79,CL,1621475309
Lorengau,-2.0226,147.2712,303.06,69,12,2.65,PG,1621475309
Richmond,37.5538,-77.4603,294.34,66,1,1.54,US,1621475028
Fairbanks,64.8378,-147.7164,291.13,34,1,3.09,US,1621475178
Kitgum,3.2783,32.8867,291.21,95,100,0.31,UG,1621475310
Bereda,43.2686,-7.5406,283.38,94,100,0.72,ES,1621475310
Río Gallegos,-51.6226,-69.2181,281.18,87,90,2.57,AR,1621475310
Lubao,14.9167,120.55,307.92,51,100,2.95,PH,1621475310
Mahabalipuram,12.6264,80.1722,302.62,62,46,4.0,IN,1621475311
Esim,4.8699,-2.2405,299.75,82,80,2.93,GH,1621475311
Kokuy,52.2037,117.5529,287.55,43,100,2.47,RU,1621475311
Nur-Sultan,51.1801,71.446,283.12,57,0,4.34,KZ,1621475312
Sinnamary,5.3833,-52.95,298.86,88,100,5.98,GF,1621475312
Tual,-5.6667,132.75,299.26,92,100,8.72,ID,1621475312
Doumé,4.2333,13.45,292.83,98,33,0.59,CM,1621475313
Leh,34.1667,77.5833,279.88,64,56,1.75,IN,1621475313
Cockburn Town,21.4612,-71.1419,299.41,76,100,10.05,TC,1621475313
Ilulissat,69.2167,-51.1,274.16,86,90,1.54,GL,1621475313
Matsusaka,34.5667,136.5333,291.09,91,100,1.63,JP,1621475314
Ola,59.5833,151.2833,274.5,88,91,3.9,RU,1621475314
Esperance,-33.8667,121.9,291.06,76,2,2.83,AU,1621475315
São Filipe,14.8961,-24.4956,296.85,75,98,2.51,CV,1621475315
Zhanakorgan,43.9098,67.2495,297.49,36,21,2.78,KZ,1621475315
Berlevåg,70.8578,29.0864,278.14,94,100,3.1,NO,1621475315
Prince Rupert,54.3161,-130.3201,284.2,76,90,2.57,CA,1621475194
Carauari,-4.8828,-66.8958,295.87,97,100,0.72,BR,1621475316
Khatanga,71.9667,102.5,269.96,91,88,1.86,RU,1621475316
Ixtapa,20.7,-105.2,295.76,82,11,1.18,MX,1621475316
Belaya Gora,68.5333,146.4167,275.02,97,100,2.91,RU,1621475317
Castrovillari,39.8203,16.2123,285.87,92,63,2.28,IT,1621475317
Jhelum,32.9331,73.7264,300.2,55,0,2.45,PK,1621475317
Andenes,69.3143,16.1194,279.14,93,90,3.09,NO,1621475318
Kabanjahe,3.1001,98.4908,294.57,68,99,0.62,ID,1621475318
Newburgh,41.5034,-74.0104,296.01,69,1,0.0,US,1621475233
Edinburgh,55.9521,-3.1965,282.72,88,80,0.35,GB,1621475019
Bongaree,-27.0797,153.1586,297.1,58,87,4.51,AU,1621475318
Swan River,52.1058,-101.2676,286.09,38,6,6.69,CA,1621475319
Agüimes,27.9054,-15.4461,293.07,75,75,12.35,ES,1621475319
Bertoua,4.5833,13.6833,292.36,93,47,0.81,CM,1621475319
Leshukonskoye,64.8989,45.7622,292.79,65,46,3.38,RU,1621475319
Dauphin,51.1494,-100.0502,293.23,21,1,6.17,CA,1621475320
Rocha,-34.4833,-54.3333,280.28,90,26,0.65,UY,1621475320
Pishin,30.5803,66.9961,295.48,12,0,0.57,PK,1621475320
Birao,10.2849,22.7882,299.91,53,43,1.7,CF,1621475321
Palekastro,35.2,26.25,293.18,63,0,1.12,GR,1621475321
Sokoto,13.0609,5.239,304.25,23,49,1.83,NG,1621475321
San Quintín,30.4833,-115.95,290.13,81,8,6.82,MX,1621475322
Mil'kovo,54.7167,158.6167,289.13,44,79,4.37,RU,1621475322
Portland,45.5234,-122.6762,287.57,60,75,1.34,US,1621475204
Alugan,12.2188,125.4808,301.4,81,100,3.01,PH,1621475322
Pevek,69.7008,170.3133,274.09,89,72,2.9,RU,1621475322
Karratha,-20.7377,116.8463,300.79,22,2,6.56,AU,1621475323
Salalah,17.0151,54.0924,302.2,79,40,1.03,OM,1621475323
Kupang,-10.1667,123.5833,303.47,62,20,6.69,ID,1621475323
Karatau,43.1667,70.4667,293.46,46,4,1.74,KZ,1621475324
Najrān,17.4924,44.1277,296.51,16,9,1.28,SA,1621475324
Erenhot,43.6475,111.9767,294.24,34,2,5.7,CN,1621475324
Emerald,-23.5333,148.1667,296.67,49,40,5.14,AU,1621475325
Raudeberg,61.9875,5.1352,279.52,91,100,6.11,NO,1621475325
Kathu,7.9178,98.3332,305.16,73,100,5.38,TH,1621475325
Dolores,-36.3132,-57.6792,281.95,81,100,2.25,AR,1621475325
Doksy,50.5647,14.6555,281.16,93,7,0.98,CZ,1621475326
Sabang,5.8933,95.3214,302.08,73,100,4.5,ID,1621475326
The Valley,18.217,-63.0578,300.27,75,96,4.86,AI,1621475286
Vestmannaeyjar,63.4427,-20.2734,277.34,82,100,1.77,IS,1621475326
Ahipara,-35.1667,173.1667,291.26,69,89,2.87,NZ,1621475327
Rome,43.2128,-75.4557,294.23,68,1,0.0,US,1621475327
Novki,56.3608,41.0775,288.18,90,20,2.47,RU,1621475327
Sand Springs,36.1398,-96.1089,293.53,97,90,3.05,US,1621475328
Sibu,2.3,111.8167,298.32,99,40,1.0,MY,1621475328
Marathon,44.9,-89.7668,293.89,92,90,2.97,US,1621475328
Līsakovsk,52.5369,62.4936,287.99,52,7,3.36,KZ,1621475328
Kisi,9.0833,3.85,297.69,81,37,3.81,NG,1621475329
Longyearbyen,78.2186,15.6401,268.06,74,75,4.12,SJ,1621475329
Dokri,27.3743,68.0967,305.21,33,0,4.83,PK,1621475329
Skibbereen,51.55,-9.2667,282.04,95,100,13.12,IE,1621475330
Duminichi,53.9345,35.1099,284.56,95,98,4.71,RU,1621475330
Roblin,51.23,-101.3565,283.66,52,1,5.49,CA,1621475123
Tessalit,20.1986,1.0114,306.32,20,34,7.41,ML,1621475330
Muisne,0.6,-80.0333,297.82,89,99,3.34,EC,1621475331
San Policarpo,12.1791,125.5072,301.37,81,100,3.06,PH,1621475331
Cayenne,4.9333,-52.3333,297.64,90,75,5.45,GF,1621475331
Lavaca,28.615,-96.6261,294.18,83,1,2.57,US,1621475332
Mnogovershinnyy,53.9353,139.9242,274.49,98,100,1.68,RU,1621475332
Calbuco,-41.768,-73.1273,284.71,83,57,8.29,CL,1621475332
Diamantino,-14.4086,-56.4461,295.13,54,7,2.11,BR,1621475333
Gravdal,68.1214,13.5031,278.57,77,100,5.97,NO,1621475333
Naze,28.3667,129.4833,299.66,81,15,6.97,JP,1621475333
Jalu,29.0331,21.5482,298.8,24,0,3.36,LY,1621475333
Bilibino,68.0546,166.4372,275.99,73,97,1.04,RU,1621475334
Tuatapere,-46.1333,167.6833,288.61,71,31,2.7,NZ,1621475334
Sajalices,8.6834,-79.8707,300.77,89,7,3.89,PA,1621475334
Mae Hong Son,19.3003,97.9685,302.23,70,20,1.54,TH,1621475335
Ossora,59.2353,163.0719,276.61,92,95,2.47,RU,1621475335
Puerto Escondido,15.85,-97.0667,302.61,70,40,0.0,MX,1621475335
Dingle,10.9995,122.6711,302.49,72,100,1.46,PH,1621475336
Christchurch,-43.5333,172.6333,289.26,74,8,3.58,NZ,1621475133
Vuktyl,63.8567,57.3094,290.54,65,87,2.46,RU,1621475336
Muddebihāl,16.3333,76.1333,298.53,72,37,5.45,IN,1621475336
Faya,18.3851,42.4509,293.44,34,5,1.91,SA,1621475337
Muros,42.7762,-9.0603,288.06,54,74,1.52,ES,1621475337
San Rafael,-34.6177,-68.3301,287.25,80,18,5.38,AR,1621475337
Campbell River,50.0163,-125.2446,288.36,43,40,3.09,CA,1621475186
Mehamn,71.0357,27.8492,278.23,91,100,2.84,NO,1621475338
Maués,-3.3836,-57.7186,296.71,98,100,0.55,BR,1621475338
Carutapera,-1.195,-46.02,297.97,90,0,2.39,BR,1621475288
Lakes Entrance,-37.8811,147.981,291.03,49,94,3.85,AU,1621475338
Corsicana,32.0954,-96.4689,295.68,82,100,1.34,US,1621475339
Tallahassee,30.4383,-84.2807,298.51,70,100,1.34,US,1621475141
Oleksandrivka,48.9634,32.2349,283.32,93,93,6.42,UA,1621475339
Ulladulla,-35.35,150.4667,290.65,39,22,1.4,AU,1621475339
Padilla,3.2204,-76.3139,292.88,93,96,1.83,CO,1621475340
Dingli,35.8614,14.3822,291.24,72,0,7.72,MT,1621475340
Uozu,36.8,137.4,295.45,61,100,1.6,JP,1621475340
Chernyshkovskiy,48.4219,42.2308,286.92,99,96,0.0,RU,1621475341
Mazagão,-0.115,-51.2894,300.18,97,23,1.22,BR,1621475341
Khovu-Aksy,51.1333,93.6,277.76,97,100,4.54,RU,1621475341
Ukiah,39.1502,-123.2078,290.39,45,1,7.72,US,1621475342
Antofagasta,-23.65,-70.4,288.75,79,10,3.13,CL,1621475088
Hof,50.3167,11.9167,280.66,94,56,1.34,DE,1621475342
Batagay,67.6333,134.6333,276.6,73,100,2.67,RU,1621475342
Holme,56.1138,10.1725,281.32,94,56,5.06,DK,1621475343
Oni,42.5794,43.4425,282.54,56,0,2.44,GE,1621475343
Solnechnyy,50.7214,136.6319,283.47,79,100,2.2,RU,1621475343
Kendari,-3.945,122.4989,302.04,73,88,0.36,ID,1621475170
Katsuura,35.1333,140.3,293.84,86,100,3.38,JP,1621475344
Plastun,44.7561,136.2939,295.53,50,15,2.73,RU,1621475344
Khorixas,-20.3667,14.9667,288.16,37,0,1.27,NA,1621475344
Kiryat Gat,31.61,34.7642,293.05,85,0,1.67,IL,1621475341
Eyl,7.9803,49.8164,300.68,65,99,9.84,SO,1621475345
Port Blair,11.6667,92.75,302.54,71,100,2.26,IN,1621475118
Shancheng,34.7953,116.0817,294.13,62,32,5.96,CN,1621475345
Lompoc,34.6391,-120.4579,294.7,65,1,8.75,US,1621475346
Mazarrón,37.5992,-1.3149,291.41,85,24,3.67,ES,1621475346
Nyuksenitsa,60.4128,44.2397,288.52,82,2,1.69,RU,1621475346
Saldanha,-33.0117,17.9442,288.18,95,100,8.98,ZA,1621475346
Grand Gaube,-20.0064,57.6608,295.03,78,15,1.34,MU,1621475347
Umluj,25.0213,37.2685,299.7,69,0,1.94,SA,1621475347
Kosonsoy,41.2561,71.5508,293.76,36,26,1.7,UZ,1621475124
Natal,-5.795,-35.2094,298.51,81,20,3.49,BR,1621475061
Revelstoke,50.9832,-118.2023,288.16,36,1,4.63,CA,1621475336
Santa Vitória do Palmar,-33.5189,-53.3681,283.05,86,100,1.18,BR,1621475348
Buala,-8.145,159.5921,301.88,76,99,2.88,SB,1621475348
Muravlenko,63.7898,74.523,276.3,45,100,5.98,RU,1621475348
Guerrero Negro,27.9769,-114.0611,290.03,80,0,8.14,MX,1621475174
Taurisano,39.9566,18.2141,286.58,72,14,5.69,IT,1621475349
Palana,59.1167,159.9667,272.81,92,100,9.94,RU,1621475349
Cidreira,-30.1811,-50.2056,286.77,76,100,1.72,BR,1621475349
Buchanan,5.8808,-10.0467,298.62,87,88,1.39,LR,1621475349
Great Bend,38.3645,-98.7648,294.44,75,40,1.34,US,1621475350
Bubaque,11.2833,-15.8333,299.26,82,100,4.98,GW,1621475350
Bullhead City,35.1478,-114.5683,310.83,5,1,10.8,US,1621475350
Harper,4.375,-7.7169,299.05,80,100,2.19,LR,1621475351
Morant Bay,17.8815,-76.4093,301.94,84,77,4.99,JM,1621475351
Barreirinhas,-2.7469,-42.8264,297.74,91,0,2.09,BR,1621475351
Kelo,9.3086,15.8066,302.28,49,10,3.01,TD,1621475352
Vila Velha,-20.3297,-40.2925,294.79,93,40,1.34,BR,1621475352
Manakara,-22.1333,48.0167,293.01,78,100,2.78,MG,1621475352
Baker,30.5882,-91.1682,297.12,78,90,6.17,US,1621475353
Shiraz,29.6036,52.5388,288.84,27,0,0.0,IR,1621475325
Pitimbu,-7.4706,-34.8086,297.48,80,0,2.11,BR,1621475353
Kurumkan,54.3,110.3,281.16,48,100,1.16,RU,1621475353
Synya,65.3718,58.0387,290.69,71,99,2.8,RU,1621475354
Hambantota,6.1241,81.1185,300.34,79,40,6.69,LK,1621475354
Bilma,18.6853,12.9164,303.28,10,0,6.28,NE,1621475354
Port Hardy,50.6996,-127.4199,285.25,66,75,6.17,CA,1621475354
Bunia,1.5667,30.25,290.01,92,100,0.81,CD,1621475355
Retie,51.2666,5.0839,282.06,95,0,1.72,BE,1621475355
Igarka,67.4667,86.5833,267.26,89,54,2.49,RU,1621475355
Nome,64.5011,-165.4064,281.57,70,1,3.6,US,1621475356
Sukumo,32.9333,132.7333,295.66,98,100,4.86,JP,1621475356
Chingirlau,51.095,54.0814,290.33,69,100,8.23,KZ,1621475356
Yerbogachën,61.2767,108.0108,278.68,27,16,1.18,RU,1621475357
Comodoro Rivadavia,-45.8667,-67.5,285.07,87,0,2.57,AR,1621475357
Haradok,55.4624,29.9816,283.06,98,100,5.21,BY,1621475357
Dawlatabad,36.4141,64.9053,299.44,13,24,2.75,AF,1621475357
Ode,7.7899,5.7117,294.69,96,98,3.0,NG,1621475358
Rio Grande,-32.035,-52.0986,285.87,78,100,2.42,BR,1621475084
Kez,57.8979,53.7152,286.8,69,0,2.01,RU,1621475358
Shubarshi,48.5872,57.1869,290.9,77,89,6.08,KZ,1621475358
Bugiri,0.5714,33.7417,291.06,93,100,0.71,UG,1621475295
Tsumeb,-19.2333,17.7167,283.9,44,0,2.07,NA,1621475359
Leningradskiy,69.3833,178.4167,274.62,84,98,3.26,RU,1621475359
Itaituba,-4.2761,-55.9836,296.34,98,100,0.27,BR,1621475359
Weinan,34.5036,109.5089,293.98,31,0,3.37,CN,1621475360
Vostok,46.4856,135.8833,297.59,36,96,3.64,RU,1621475360
Karakol,42.4907,78.3936,284.66,66,100,0.83,KG,1621475360
Maple Creek,49.9168,-109.4848,284.18,40,100,2.57,CA,1621475361
Neiafu,-18.65,-173.9833,301.53,69,20,4.63,TO,1621475361
Arrondissement de Pontarlier,46.8333,6.25,278.12,99,97,1.47,FR,1621475361
Victoria Point,-27.5833,153.3,297.68,58,63,3.58,AU,1621475362
Angoche,-16.2325,39.9086,295.07,83,8,3.9,MZ,1621475362
Ancud,-41.8697,-73.8203,283.94,83,17,6.17,CL,1621475362
Paamiut,61.994,-49.6678,275.98,78,100,6.18,GL,1621475363
Eureka,40.8021,-124.1637,285.69,73,2,3.13,US,1621475071
Gizo Government Station,-8.103,156.8419,302.98,65,100,1.5,SB,1621475363
Tonj,7.2737,28.6822,295.28,91,96,1.06,SS,1621475363
Den Helder,52.9599,4.7593,283.14,93,75,3.09,NL,1621475364
Alice Springs,-23.7,133.8833,296.6,21,0,5.36,AU,1621475364
Coruripe,-10.1256,-36.1756,297.17,89,63,0.25,BR,1621475364
Kamaishi,39.2667,141.8833,292.68,71,100,2.19,JP,1621475364
Iqaluit,63.7506,-68.5145,268.0,58,75,2.57,CA,1621475326
Saskylakh,71.9167,114.0833,271.06,89,100,4.48,RU,1621475365
Bhachāu,23.2833,70.35,302.59,61,20,4.83,IN,1621475365
Sisimiut,66.9395,-53.6735,271.4,95,100,5.71,GL,1621475365
Bartica,6.4,-58.6167,298.33,99,55,0.99,GY,1621475366
Yuli,9.6989,10.2744,301.92,51,27,2.78,NG,1621475366
Alofi,-19.0595,-169.9187,302.09,74,75,4.63,NU,1621475366
Sambava,-14.2667,50.1667,295.22,79,15,5.68,MG,1621475367
Xai-Xai,-25.0519,33.6442,289.41,86,35,3.51,MZ,1621475116
Dalhousie,32.5333,75.9833,288.04,60,0,0.67,IN,1621475367
Nicoya,10.1483,-85.452,299.9,79,75,1.31,CR,1621475367
Pudozh,61.8099,36.5345,289.6,88,56,2.95,RU,1621475368
Nemuro,43.3236,145.575,292.39,90,62,4.83,JP,1621475368
Riyadh,24.6877,46.7219,306.18,12,0,1.54,SA,1621475160
Apatity,67.5641,33.4031,282.35,81,98,3.23,RU,1621475368
Polunochnoye,60.8697,60.4153,289.94,52,97,2.66,RU,1621475369
Flinders,-34.5833,150.8552,292.48,51,79,0.45,AU,1621475369
Yangi Marg`ilon,40.4272,71.7189,291.55,59,88,2.06,UZ,1621475369
Ust-Kuyga,70.0167,135.6,274.82,76,84,3.87,RU,1621475370
Camaçari,-12.6975,-38.3242,299.02,85,29,1.91,BR,1621475370
Arenápolis,-14.4503,-56.8461,295.21,55,14,1.76,BR,1621475370
Ngunguru,-35.6167,174.5,291.57,69,100,2.15,NZ,1621475371
Gander,48.9682,-54.5906,283.22,57,40,4.12,CA,1621475371
Bridlington,54.0831,-0.1919,280.87,86,56,4.69,GB,1621475371
Machilipatnam,16.1667,81.1333,302.26,67,38,5.94,IN,1621475371
Sivaki,52.6333,126.75,279.28,86,100,2.91,RU,1621475372
Kavieng,-2.5744,150.7967,302.97,68,17,2.73,PG,1621475372
Markova,48.6758,24.4138,278.69,95,90,1.41,UA,1621475372
Kargat,55.1956,80.2811,279.19,46,33,6.6,RU,1621475373
Pauini,-7.7136,-66.9764,295.71,98,20,1.24,BR,1621475373
Riachão,-7.3619,-46.6172,297.99,72,71,1.24,BR,1621475373
‘Āhuimanu,21.4447,-157.8378,300.99,61,20,8.75,US,1621475374
Lockhart,28.6194,-81.4426,297.26,81,100,1.34,US,1621475374
Plettenberg Bay,-34.0527,23.3716,289.99,55,89,2.33,ZA,1621475374
Dalvik,65.9702,-18.5286,273.11,80,55,1.04,IS,1621475374
Popondetta,-8.7537,148.2534,304.89,57,100,1.66,PG,1621475375
Mayahi,13.9553,7.6712,303.17,14,50,3.69,NE,1621475375
Mvomero,-6.25,38.6667,292.67,91,97,1.75,TZ,1621475375
Menzel Salem,35.8567,8.4765,288.15,72,98,2.2,TN,1621475376
Vilyuysk,63.7553,121.6247,280.88,33,64,3.36,RU,1621475376
Mount Gambier,-37.8333,140.7667,288.1,88,90,2.57,AU,1621475376
Lafia,8.4833,8.5167,299.6,78,69,1.62,NG,1621475377
Waldoboro,44.0954,-69.3756,287.8,79,19,2.06,US,1621475377
Willowmore,-33.2926,23.4895,287.07,53,78,2.24,ZA,1621475377
Balsas,-7.5325,-46.0356,298.03,74,40,1.05,BR,1621475377
Gornopravdinsk,60.05,69.9,278.17,90,100,4.48,RU,1621475378
Hokitika,-42.7167,170.9667,286.13,73,100,1.31,NZ,1621475378
Oranjemund,-28.55,16.4333,287.29,82,21,4.65,NA,1621475378
Broome,42.2506,-75.833,292.8,89,100,1.41,US,1621475379
Linköping,58.4109,15.6216,279.81,91,78,2.06,SE,1621475379
Gidrotorf,56.4744,43.5414,293.14,85,0,3.96,RU,1621475379
Jacareacanga,-6.2222,-57.7528,295.92,98,100,0.67,BR,1621475380
Gillette,44.2911,-105.5022,294.79,39,40,5.81,US,1621475380
Helong,42.5397,128.9972,299.99,30,100,2.18,CN,1621475380
Quang Ngai,15.1167,108.8,307.82,45,100,1.67,VN,1621475380
Yinchuan,38.4681,106.2731,297.14,17,0,2.92,CN,1621475381
Loreto,22.2667,-101.9667,293.86,9,0,6.28,MX,1621475381
Lastoursville,-0.8143,12.7287,295.41,98,86,0.88,GA,1621475381
Apastovo,55.2029,48.5109,289.32,75,2,6.18,RU,1621475382
Tarko-Sale,64.9225,77.785,275.37,57,100,2.4,RU,1621475382
Vilhena,-12.7406,-60.1458,293.46,71,34,0.96,BR,1621475382
Puntarenas,9.9763,-84.8384,301.11,79,84,2.3,CR,1621475289
Neuquén,-38.9516,-68.0591,285.09,94,0,0.0,AR,1621475355
Chowchilla,37.123,-120.2602,300.32,23,1,8.8,US,1621475383
Magdagachi,53.45,125.8,277.34,94,100,0.73,RU,1621475383
Wanlaweyn,2.6185,44.8938,296.93,88,97,5.75,SO,1621475383
São Gabriel da Cachoeira,-0.1303,-67.0892,295.98,99,100,0.61,BR,1621475384
Gobabis,-22.45,18.9667,286.43,44,7,5.75,NA,1621475384
Ust-Tsilma,65.441,52.1498,293.98,58,77,2.93,RU,1621475384
Skjervøy,70.0311,20.9714,278.93,96,100,1.89,NO,1621475384
Eirunepé,-6.6603,-69.8736,295.89,95,100,1.1,BR,1621475385
Pandan,14.0453,124.1694,302.08,79,100,3.23,PH,1621475385
Yakeshi,49.2833,120.7333,288.6,33,57,1.35,CN,1621475385
Bikaner,28.0167,73.3,297.87,62,5,3.09,IN,1621475386
Kirovskiy,45.0917,133.5136,299.34,43,0,3.72,RU,1621475386
Kieta,-6.2167,155.6333,302.73,70,99,2.14,PG,1621475386
Kisanga,-7.4362,37.7034,293.15,87,98,1.65,TZ,1621475386
Isoka,-10.1606,32.6335,285.41,94,38,0.72,ZM,1621475387
Shimoda,34.6667,138.95,298.24,84,100,3.26,JP,1621475387
Osypenko,46.9136,36.8253,286.95,88,1,5.88,UA,1621475387
Pochutla,15.7432,-96.4661,301.62,69,7,3.4,MX,1621475388
Nantucket,41.2835,-70.0995,287.21,82,1,1.54,US,1621475248
Charter Township of Clinton,42.587,-82.9199,298.85,58,90,0.45,US,1621475154
Marzuq,14.4,46.4667,299.49,31,95,0.65,YE,1621475388
Pasvalys,56.0594,24.4036,282.77,84,100,2.79,LT,1621475389
Husavik,66.0449,-17.3389,273.1,74,10,1.48,IS,1621475389
Alekseyevsk,57.8406,108.3492,278.14,34,24,3.13,RU,1621475389
Denpasar,-8.65,115.2167,301.96,71,40,3.47,ID,1621475130
Gilgit,35.9221,74.3087,291.6,57,93,0.83,PK,1621475390
Padang,-0.9492,100.3543,303.18,71,100,0.41,ID,1621475390
Torbay,47.6666,-52.7314,278.86,78,40,4.63,CA,1621475390
Luena,-11.7833,19.9167,286.9,66,79,1.44,AO,1621475391
Meadow Lake,34.8014,-106.5436,296.19,46,63,3.33,US,1621475391
Taoudenni,22.6783,-3.9836,308.99,15,99,9.14,ML,1621475391
Indramayu,-6.3264,108.32,301.29,73,91,2.28,ID,1621475391
Tezu,27.9167,96.1667,296.27,98,100,1.41,IN,1621475392
Chara,56.9064,118.2631,276.81,42,69,1.32,RU,1621475392
Kaeo,-35.1,173.7833,291.66,66,100,1.0,NZ,1621475393
Kyrenia,35.3417,33.3167,291.9,72,0,3.93,CY,1621475393
Ivanovo,56.9942,40.9858,287.76,94,2,2.86,RU,1621475393
Jalalpur Pirwala,29.5069,71.2192,303.04,37,0,6.57,PK,1621475393
Road Town,18.4167,-64.6167,301.2,78,20,1.54,VG,1621475394
Filingué,14.3521,3.3168,306.81,24,91,2.51,NE,1621475394
Ipixuna,-1.7625,-48.8043,299.12,97,4,1.59,BR,1621475394
Capula,19.7,-101.8,284.54,42,0,1.95,MX,1621475395
Kaohsiung City,22.6163,120.3133,306.2,73,75,3.58,TW,1621475395
São João da Barra,-21.6403,-41.0511,293.24,83,34,1.83,BR,1621475130
Zhigansk,66.7697,123.3711,278.01,43,14,0.47,RU,1621475395
Hilton Head,32.2163,-80.7526,296.15,71,20,3.6,US,1621475396
Turbiv,49.3479,28.7212,282.49,96,98,4.33,UA,1621475396
Vanimo,-2.6741,141.3028,303.07,67,84,2.25,PG,1621475396
Vasai,19.47,72.8,300.2,74,63,3.47,IN,1621475397
Takhtamygda,54.1,123.5667,282.41,58,58,2.88,RU,1621475397
Kangaatsiaq,68.3065,-53.4641,274.08,89,100,1.44,GL,1621475397
Riohacha,11.5444,-72.9072,299.05,89,18,3.5,CO,1621475398
Viedma,-40.8135,-62.9967,285.2,87,100,4.53,AR,1621475398
Birin,26.8865,88.0718,292.86,76,87,0.4,NP,1621475398
Oktyabr'skiy,54.4815,53.471,288.2,65,0,3.37,RU,1621475399
Tabuk,17.4189,121.4443,306.38,41,5,3.28,PH,1621475399
Carndonagh,55.25,-7.2667,279.69,95,100,2.66,IE,1621475399
Akhmeta,42.0311,45.2075,286.44,78,0,2.36,GE,1621475400
Cabra,37.4725,-4.4421,291.85,61,60,0.89,ES,1621475400
Beira,-19.8436,34.8389,293.2,77,0,1.19,MZ,1621475400
Dalbandin,28.8947,64.4101,302.08,10,0,2.11,PK,1621475400
Alta Floresta,-9.8756,-56.0861,296.05,94,0,0.0,BR,1621475401
Caravelas,-17.7125,-39.2481,294.84,86,3,0.9,BR,1621475401
